City,Lat,Lng,Max Temp,Humidity,Cloudiness,Wind Speed,Country,Date
Hithadhoo,-0.6,73.0833,80.04,80,95,13.22,MV,1667158411
Castro,-24.7911,-50.0119,72.46,82,100,9.06,BR,1667158412
Albany,42.6001,-73.9662,65.25,31,100,1.99,US,1667158401
Mataura,-46.1927,168.8643,54.97,65,28,1.14,NZ,1667158413
Rikitea,-23.1203,-134.9692,72.7,81,100,5.17,PF,1667158379
Tiznit Province,29.5833,-9.5,76.77,14,10,5.75,MA,1667158414
Lavrentiya,65.5833,-171.0,15.57,72,100,12.84,RU,1667158414
Rome,43.2128,-75.4557,67.62,24,0,3.44,US,1667158297
Vaini,-21.2,-175.2,77.16,88,40,11.5,TO,1667158415
Atuona,-9.8,-139.0333,77.38,74,5,18.99,PF,1667158416
Bathsheba,13.2167,-59.5167,86.61,70,20,12.66,BB,1667158416
Hwange,-18.3693,26.5019,84.4,32,95,2.04,ZW,1667158417
Thompson,55.7435,-97.8558,42.96,56,75,5.75,CA,1667158418
Punta Arenas,-53.15,-70.9167,51.91,50,0,29.93,CL,1667158366
Upernavik,72.7868,-56.1549,15.17,65,0,14.0,GL,1667158418
Busselton,-33.65,115.3333,53.13,71,88,11.5,AU,1667158419
North Bend,43.4065,-124.2243,61.25,83,0,0.0,US,1667158230
Tasiilaq,65.6145,-37.6368,37.56,98,100,20.09,GL,1667158420
Bluff,-46.6,168.3333,51.31,76,7,5.17,NZ,1667158421
Iqaluit,63.7506,-68.5145,29.93,86,100,10.36,CA,1667158421
Ushuaia,-54.8,-68.3,46.06,66,40,40.29,AR,1667158307
Clyde River,70.4692,-68.5914,5.23,85,40,5.75,CA,1667158422
Kargil,34.5667,76.1,38.28,39,100,4.43,IN,1667158423
Ponta do Sol,32.6667,-17.1,73.71,88,98,6.06,PT,1667158423
Sitka,57.0531,-135.33,48.09,71,100,28.77,US,1667158392
Puerto Ayora,-0.7393,-90.3518,67.55,92,97,5.99,EC,1667158424
Sangar,63.9242,127.4739,6.98,92,99,5.06,RU,1667158425
Torbay,47.6666,-52.7314,55.58,73,75,23.02,CA,1667158426
Airai,-8.9266,125.4092,61.52,89,100,1.41,TL,1667158426
Paamiut,61.994,-49.6678,29.62,64,100,7.09,GL,1667158427
Saldanha,-33.0117,17.9442,59.05,69,0,26.37,ZA,1667158427
Launceston,-41.45,147.1667,60.44,83,100,21.85,AU,1667158187
New Norfolk,-42.7826,147.0587,54.91,72,100,3.06,AU,1667158428
Mapiripán,2.8892,-72.1256,83.46,72,100,6.64,CO,1667158428
Hong Kong,22.2855,114.1577,76.32,59,100,21.0,HK,1667158194
Road Town,18.4167,-64.6167,80.69,94,40,11.5,VG,1667158430
Trincomalee,8.5711,81.2335,81.07,80,100,11.12,LK,1667158430
Iskateley,67.6803,53.1512,34.36,91,100,13.82,RU,1667158431
Acaraú,-2.8856,-40.12,82.6,60,4,19.64,BR,1667158431
General Higinio Morínigo,-25.95,-55.9167,78.1,88,66,3.4,PY,1667158432
Yārāda,17.65,83.2667,73.72,88,40,2.3,IN,1667158432
Hilo,19.7297,-155.09,84.25,74,0,3.44,US,1667158433
Erzin,36.9559,36.2,70.29,32,19,6.64,TR,1667158434
Adrar,20.5022,-10.0711,80.62,12,58,9.73,MR,1667158434
Tautira,-17.7333,-149.15,78.28,80,50,10.11,PF,1667158435
Ancud,-41.8697,-73.8203,52.93,56,50,7.49,CL,1667158435
Arraial do Cabo,-22.9661,-42.0278,89.46,55,40,13.8,BR,1667158436
Camacha,33.0833,-16.3333,67.42,83,20,8.05,PT,1667158436
Manzhouli,49.6,117.4333,31.03,95,100,14.47,CN,1667158437
Dillon,34.4166,-79.3712,66.94,48,89,5.37,US,1667158168
Matara,5.9485,80.5353,76.44,90,95,4.14,LK,1667158438
Tsimmerbude,54.675,20.1347,51.96,91,40,2.62,RU,1667158438
Biak,-0.9131,122.8766,77.45,78,100,3.33,ID,1667158439
Norman Wells,65.282,-126.8329,14.04,92,100,5.75,CA,1667158439
Chimoré,-16.9833,-65.1333,84.99,66,100,3.71,BO,1667158440
Saint-Philippe,-21.3585,55.7679,72.99,82,45,13.35,RE,1667158440
Tashtagol,52.7657,87.8894,26.73,61,100,4.41,RU,1667158441
Hermanus,-34.4187,19.2345,58.8,55,100,13.15,ZA,1667158442
Brae,60.3964,-1.353,52.9,90,64,17.49,GB,1667158442
Mar del Plata,-38.0023,-57.5575,57.22,51,20,18.41,AR,1667158443
Japura,-0.3167,102.35,73.69,99,100,2.44,ID,1667158444
Mahébourg,-20.4081,57.7,74.25,78,40,10.36,MU,1667158399
Zima,53.9202,102.0442,23.31,73,84,3.18,RU,1667158445
George Town,5.4112,100.3354,81.23,92,20,3.44,MY,1667158228
Kahului,20.8947,-156.47,84.22,66,20,13.8,US,1667158446
Yar-Sale,66.8333,70.8333,30.13,93,100,16.87,RU,1667158447
Bredasdorp,-34.5322,20.0403,59.16,51,100,8.48,ZA,1667158447
Chara,56.9064,118.2631,23.97,87,100,3.6,RU,1667158448
San Juan,-31.5375,-68.5364,62.94,17,2,26.55,AR,1667158449
Provideniya,64.3833,-173.3,12.13,74,18,7.47,RU,1667158451
Port-Cartier,50.0334,-66.8654,55.08,64,46,7.34,CA,1667158451
Vestmannaeyjar,63.4427,-20.2734,46.09,92,100,6.73,IS,1667158452
Kapaa,22.0752,-159.319,82.38,74,40,14.97,US,1667158220
Hobart,-42.8794,147.3294,53.06,82,20,10.36,AU,1667158185
Ostrovnoy,68.0531,39.5131,38.59,70,100,26.33,RU,1667158454
Khatanga,71.9667,102.5,9.3,96,96,8.05,RU,1667158454
Udachny,66.4167,112.4,-8.99,100,36,3.22,RU,1667158455
Colorado,-22.8375,-51.9731,79.18,74,66,7.4,BR,1667158456
Izumo,35.3667,132.7667,51.75,78,31,6.02,JP,1667158375
Avarua,-21.2078,-159.775,73.45,94,75,21.85,CK,1667158458
Tsnori,41.6209,45.9694,51.76,64,21,4.32,GE,1667158460
Cape Town,-33.9258,18.4232,61.27,68,20,24.16,ZA,1667158200
Carnarvon,-24.8667,113.6333,61.38,57,0,26.02,AU,1667158461
Saint George,37.1041,-113.5841,67.24,22,0,5.75,US,1667158461
Kisanga,-7.4362,37.7034,76.87,71,99,8.32,TZ,1667158462
Butaritari,3.0707,172.7902,79.09,70,55,7.14,KI,1667158463
Lagoa,39.05,-27.9833,61.47,59,99,17.96,PT,1667158377
Beipiao,41.7919,120.7792,45.79,88,100,3.47,CN,1667158464
Algiers,36.7525,3.042,66.02,88,40,2.3,DZ,1667158464
Guerrero Negro,27.9769,-114.0611,73.36,58,0,8.99,MX,1667158170
Henties Bay,-22.116,14.2845,60.28,81,88,6.96,NA,1667158465
Kavieng,-2.5744,150.7967,81.75,70,52,7.94,PG,1667158467
Tuktoyaktuk,69.4541,-133.0374,12.2,79,20,16.11,CA,1667158468
Nikolskoye,59.7035,30.7861,37.29,59,4,14.94,RU,1667158468
Souillac,-20.5167,57.5167,73.78,78,40,10.36,MU,1667158469
Pañgobilian,8.8011,117.8594,79.29,87,100,14.18,PH,1667158470
Bengkulu,-3.8004,102.2655,74.25,91,100,4.16,ID,1667158471
Coahuayana Viejo,18.7333,-103.6833,87.15,59,1,6.22,MX,1667158471
Saskylakh,71.9167,114.0833,3.88,97,100,4.65,RU,1667158472
Cidreira,-30.1811,-50.2056,71.01,95,100,7.9,BR,1667158472
Kaitangata,-46.2817,169.8464,53.46,73,87,2.35,NZ,1667158473
Agadir,30.4202,-9.5982,84.65,24,28,3.89,MA,1667158304
Machalí,-34.1833,-70.6667,63.68,32,20,10.36,CL,1667158474
Yellowknife,62.456,-114.3525,25.32,93,100,13.8,CA,1667158266
Jamestown,42.097,-79.2353,63.05,34,0,6.91,US,1667158402
Kruisfontein,-34.0033,24.7314,59.88,64,100,15.88,ZA,1667158475
Caucayá,-0.1934,-74.7819,89.33,51,100,4.03,CO,1667158475
San Miguel de Tucumán,-26.8241,-65.2226,75.2,27,100,14.97,AR,1667158476
Matagami,49.7502,-77.6328,57.31,51,40,9.22,CA,1667158477
Nola,40.922,14.5329,66.63,65,4,1.86,IT,1667158478
Nizhniye Sergi,56.6614,59.3033,33.1,96,100,11.92,RU,1667158478
Thunder Bay,48.4001,-89.3168,62.58,31,40,5.75,CA,1667158479
Tremedal,-14.9758,-41.4108,86.83,42,54,10.0,BR,1667158480
Barrow,71.2906,-156.7887,19.42,93,100,4.61,US,1667158482
Aksarayskiy,46.7924,48.0119,51.82,86,100,18.68,RU,1667158483
Port Lincoln,-34.7333,135.8667,53.56,80,100,11.5,AU,1667158483
Kushiro,42.975,144.3747,48.27,85,99,13.22,JP,1667158484
Guisa,20.255,-76.5386,81.55,78,35,6.85,CU,1667158485
Nanortalik,60.1432,-45.2371,25.9,69,98,10.96,GL,1667158485
Pilas,37.3034,-6.301,75.36,58,16,2.13,ES,1667158486
Yagodnoye,62.55,149.6667,-16.38,98,75,3.96,RU,1667158486
São Félix do Xingu,-6.6447,-51.995,90.07,47,82,0.58,BR,1667158487
Boone,39.0334,-92.3335,56.8,96,100,6.13,US,1667158488
Araouane,18.9048,-3.5265,79.57,14,12,8.39,ML,1667158489
Kaohsiung City,22.6163,120.3133,75.15,95,75,5.75,TW,1667158489
Bandarbeyla,9.4942,50.8122,78.3,81,26,11.39,SO,1667158490
Chokurdakh,70.6333,147.9167,-13.83,100,91,4.12,RU,1667158491
Kharan,28.5833,65.4167,74.71,16,0,7.99,PK,1667158491
Raja,8.4596,25.678,78.21,48,100,1.32,SS,1667158492
Lompoc,34.6391,-120.4579,81.84,64,0,16.11,US,1667158492
Black River,18.0264,-77.8487,84.38,68,59,1.61,JM,1667158493
East London,-33.0153,27.9116,64.63,84,100,18.5,ZA,1667158493
Yangi Marg`ilon,40.4272,71.7189,52.52,93,75,4.61,UZ,1667158494
Sola,-13.8833,167.55,72.27,94,4,0.0,VU,1667158495
Marion,39.7684,-86.1555,61.12,92,100,9.22,US,1667158495
Arak,34.0917,49.6892,58.93,36,100,4.34,IR,1667158496
Lyubinskiy,55.1542,72.6925,24.48,96,25,3.38,RU,1667158496
Saint-Joseph,-21.3667,55.6167,71.98,80,31,12.08,RE,1667158497
Saint-Pierre,-21.3393,55.4781,74.91,78,0,2.3,RE,1667158497
Pudozh,61.8099,36.5345,34.7,96,100,16.64,RU,1667158498
Stephenville,32.2207,-98.2023,72.77,46,0,5.75,US,1667158228
Siniscola,40.5719,9.6922,54.95,79,3,4.92,IT,1667158499
Dikson,73.5069,80.5464,24.42,95,100,26.28,RU,1667158499
Yerbogachën,61.2767,108.0108,17.78,95,99,5.7,RU,1667158500
Macomb,40.4592,-90.6718,59.68,66,100,1.99,US,1667158477
Nishihara,26.1842,127.7558,76.68,78,100,21.85,JP,1667158501
Srednekolymsk,67.45,153.6833,-3.95,99,98,6.13,RU,1667158501
Muros,42.7762,-9.0603,59.16,90,100,7.2,ES,1667158503
Walvis Bay,-22.9575,14.5053,65.35,72,99,5.75,NA,1667158503
Waitati,-45.75,170.5667,56.8,66,100,1.59,NZ,1667158504
Trelew,-43.249,-65.3051,56.61,23,37,22.84,AR,1667158505
Mount Gambier,-37.8333,140.7667,51.71,93,75,13.8,AU,1667158506
Antigonish,45.6169,-61.9986,56.97,54,0,5.41,CA,1667158468
Oistins,13.0667,-59.5333,86.09,70,20,12.66,BB,1667158404
Disna,55.568,28.1971,40.12,71,62,13.29,BY,1667158507
Olinda,-8.0089,-34.8553,82.13,65,20,8.05,BR,1667158507
Liusha,27.2098,108.59,50.04,97,17,1.25,CN,1667158508
Coxim,-18.5067,-54.76,91.87,42,78,7.81,BR,1667158509
Meadow Lake,34.8014,-106.5436,62.62,26,100,5.86,US,1667158227
Zhigansk,66.7697,123.3711,8.49,97,100,9.95,RU,1667158511
Qaanaaq,77.484,-69.3632,-6.11,77,11,7.67,GL,1667158512
Pevek,69.7008,170.3133,6.69,95,100,5.86,RU,1667158512
Cabo San Lucas,22.8909,-109.9124,86.61,54,0,3.44,MX,1667158471
Ilawe,7.8667,4.4333,76.84,68,46,2.95,NG,1667158513
San Policarpo,12.1791,125.5072,81.25,86,100,12.21,PH,1667158514
Santa Luzia,-19.7697,-43.8514,86.14,45,75,4.61,BR,1667158514
‘Ewa Beach,21.3156,-158.0072,82.35,66,20,10.36,US,1667158515
Port Alfred,-33.5906,26.891,61.18,96,100,5.01,ZA,1667158515
Codrington,-38.2667,141.9667,53.4,92,100,15.43,AU,1667158516
Yeppoon,-23.1333,150.7333,65.98,86,0,6.22,AU,1667158517
Ust-Maya,60.4167,134.5333,7.03,97,100,2.06,RU,1667158517
Shimoda,34.6667,138.95,61.12,64,100,9.91,JP,1667158518
San Cristobal,7.7669,-72.225,80.78,48,98,1.92,VE,1667158519
‘Āhuimanu,21.4447,-157.8378,82.11,72,40,10.36,US,1667158519
Asău,46.4333,26.4,54.52,79,85,2.59,RO,1667158520
Drezdenko,52.8383,15.8308,54.45,82,19,3.22,PL,1667158521
Cappelle-la-Grande,50.9998,2.3585,58.21,81,100,4.0,FR,1667158521
Laguna,38.421,-121.4238,75.09,50,0,4.61,US,1667158323
Saint Paul Harbor,57.79,-152.4072,29.71,55,0,31.07,US,1667158522
Chui,-33.6971,-53.4616,58.59,89,100,17.56,UY,1667158523
Mount Isa,-20.7333,139.5,83.97,42,0,8.05,AU,1667158524
Ponta Delgada,37.7333,-25.6667,61.52,88,40,23.02,PT,1667158525
Panguma,8.1833,-11.1333,75.4,83,95,0.74,SL,1667158525
Port Elizabeth,-33.918,25.5701,63.32,78,100,21.99,ZA,1667158526
Kiryat Gat,31.61,34.7642,72.81,100,2,5.1,IL,1667158526
Geraldton,-28.7667,114.6,48.61,93,53,4.61,AU,1667158260
Egvekinot,66.3167,-179.1667,1.72,69,32,7.43,RU,1667158527
Maniitsoq,65.4167,-52.9,26.58,68,94,5.73,GL,1667158529
Bato,13.3528,123.3677,78.06,88,100,11.23,PH,1667158529
Haines Junction,60.7522,-137.5108,21.15,73,99,9.22,CA,1667158531
Jieshi,22.8134,115.8257,72.99,60,100,13.44,CN,1667158531
Longyearbyen,78.2186,15.6401,28.24,86,75,3.44,SJ,1667158344
Teahupoo,-17.8333,-149.2667,78.76,80,50,11.05,PF,1667158532
Cayenne,4.9333,-52.3333,82.44,78,100,3.44,GF,1667158396
Solnechnyy,50.7214,136.6319,30.94,74,100,4.45,RU,1667158533
Buala,-8.145,159.5921,80.38,83,4,2.13,SB,1667158534
Boa Vista,2.8197,-60.6733,89.58,58,40,8.05,BR,1667158516
Aswān,24.0934,32.907,78.1,31,0,0.0,EG,1667158535
Talnakh,69.4865,88.3972,22.21,95,100,14.16,RU,1667158535
Sioux Lookout,50.1001,-91.917,51.87,32,20,8.05,CA,1667158536
Pangnirtung,66.1451,-65.7125,19.4,79,20,8.05,CA,1667158536
Bambous Virieux,-20.3428,57.7575,73.65,78,40,10.36,MU,1667158537
Bāglung,28.2719,83.5898,58.37,71,1,5.37,NP,1667158538
Vila Franca do Campo,37.7167,-25.4333,61.21,75,97,18.84,PT,1667158538
Hervey Bay,-25.2986,152.8535,73.99,80,4,6.78,AU,1667158539
Abong Mbang,3.9833,13.1833,70.3,84,59,2.15,CM,1667158539
Severo-Kuril'sk,50.6789,156.125,38.21,70,12,18.34,RU,1667158540
Santa Rosa,14.3122,121.1114,81.09,90,100,8.5,PH,1667158540
Havre-St-Pierre,50.2334,-63.5986,48.56,71,0,19.57,CA,1667158541
Cherskiy,68.75,161.3,-2.15,99,100,7.25,RU,1667158541
Gravdal,68.1214,13.5031,45.63,77,100,13.49,NO,1667158543
Sulangan,11.1373,123.7228,83.32,74,100,9.53,PH,1667158543
Pitsunda,43.1592,40.3378,51.98,63,97,3.18,GE,1667158544
Anloga,5.7947,0.8973,80.98,79,6,9.19,GH,1667158544
Moose Factory,51.2585,-80.6094,60.8,51,0,11.5,CA,1667158545
Madera,37.1666,-119.8343,78.98,29,0,3.0,US,1667158545
Ulladulla,-35.35,150.4667,60.46,70,19,8.12,AU,1667158546
Tonshayevo,57.736,47.0127,35.83,93,100,6.64,RU,1667158546
Bethel,41.3712,-73.414,68.09,31,0,6.91,US,1667158547
Praia,14.9215,-23.5087,79.34,73,0,19.57,CV,1667158548
Lianzhou,24.7811,112.3825,58.01,85,97,6.08,CN,1667158548
Pisco,-13.7,-76.2167,69.03,77,9,10.36,PE,1667158387
Pedasí,7.5333,-80.0333,80.47,73,88,5.1,PA,1667158549
Pulaski,34.7668,-92.3001,65.32,86,100,9.22,US,1667158550
San Quintín,30.4833,-115.95,71.65,59,100,9.69,MX,1667158550
Deputatsky,69.3,139.9,-13.52,86,9,3.76,RU,1667158551
Sinnamary,5.3833,-52.95,81.73,82,100,6.11,GF,1667158552
Fare,-16.7,-151.0167,79.59,76,58,12.71,PF,1667158552
Laas,46.6166,10.7002,59.88,72,97,2.28,IT,1667158553
San Patricio,28.017,-97.5169,81.16,34,18,5.46,US,1667158554
Yafran,32.0633,12.5286,61.23,74,50,7.11,LY,1667158554
Maridi,4.9158,29.4742,68.47,94,79,2.59,SS,1667158555
Khorixas,-20.3667,14.9667,72.59,24,94,5.35,NA,1667158555
Rawson,-43.3002,-65.1023,52.54,38,11,23.35,AR,1667158262
Doha,25.2867,51.5333,84.09,67,0,4.61,QA,1667158556
Port Hardy,50.6996,-127.4199,50.18,93,75,2.3,CA,1667158557
Mayo,38.8876,-76.5119,64.11,68,75,8.99,US,1667158558
Truro,50.2653,-5.0544,61.84,88,75,13.8,GB,1667158559
Libertador General San Martín,-23.8064,-64.7876,99.63,24,1,13.02,AR,1667158560
Bassar,9.25,0.7833,76.55,47,7,3.58,TG,1667158560
Sebastian,35.1668,-94.2669,61.9,82,100,6.11,US,1667158561
Lebu,-37.6167,-73.65,52.61,65,0,25.86,CL,1667158562
Taltal,-25.4,-70.4833,62.98,66,23,4.09,CL,1667158563
Luau,-10.7073,22.2247,65.84,80,100,1.97,AO,1667158565
Sabla,12.7525,4.7077,81.77,22,0,9.31,NG,1667158566
Lincoln,40.8,-96.667,67.24,43,100,4.0,US,1667158420
Roald,62.5833,6.1333,58.15,81,75,3.44,NO,1667158566
Beira,-19.8436,34.8389,77.25,80,0,9.48,MZ,1667158567
Smiltene,57.4244,25.9016,35.55,70,5,6.22,LV,1667158568
Aktas,49.7789,72.9608,31.75,97,100,14.18,KZ,1667158357
Mayumba,-3.432,10.6554,77.81,87,78,2.62,GA,1667158569
Fort Nelson,58.8053,-122.7002,22.59,80,100,8.05,CA,1667158569
Waddān,29.1614,16.139,70.84,45,70,2.57,LY,1667158570
Sheridan,44.8333,-106.9173,64.31,38,0,4.0,US,1667158376
Oktyabr'skiy,54.4815,53.471,41.81,91,100,19.3,RU,1667158571
Oranjemund,-28.55,16.4333,59.07,85,62,13.67,NA,1667158572
Machaneng,-23.1862,27.4886,79.57,42,100,7.96,BW,1667158573
Camacupa,-12.0167,17.4833,63.63,83,74,2.82,AO,1667158573
Soyo,-6.1349,12.3689,78.75,86,96,8.9,AO,1667158574
Karratha,-20.7377,116.8463,69.24,23,0,20.85,AU,1667158278
Tianpeng,30.9866,103.9393,63.72,85,100,3.6,CN,1667158575
Aksarka,66.5606,67.7975,30.06,94,100,15.35,RU,1667158576
Charters Towers,-20.1,146.2667,75.02,87,0,8.72,AU,1667158577
Sokoni,-6.4333,39.55,77.74,84,57,13.35,TZ,1667158577
Rush,53.5223,-6.0931,57.0,83,20,10.36,IE,1667158578
Ribeira Grande,38.5167,-28.7,63.0,55,20,7.0,PT,1667158579
Kununurra,-15.7667,128.7333,76.98,83,80,0.0,AU,1667158579
Manyana,-23.4,21.7167,69.48,64,97,8.7,BW,1667158580
Leningradskiy,69.3833,178.4167,7.56,87,100,14.03,RU,1667158581
Aklavik,68.2191,-135.0107,14.0,85,75,8.05,CA,1667158581
Tromsø,69.6496,18.957,41.02,87,75,12.66,NO,1667158582
Lata,40.1629,-8.3327,63.81,75,100,3.33,PT,1667158583
Kitui,-1.367,38.0106,66.49,68,8,6.29,KE,1667158583
Awjilah,29.1081,21.2869,66.78,49,0,6.35,LY,1667158584
Tazovsky,67.4667,78.7,29.05,93,100,15.3,RU,1667158584
Baruun-Urt,46.6806,113.2792,27.34,82,98,17.69,MN,1667158585
Rayong,12.8333,101.4333,81.79,99,100,5.97,TH,1667158586
Pleszew,51.8964,17.7855,57.78,77,26,3.67,PL,1667158586
Easthampton,42.2668,-72.669,68.72,32,0,6.91,US,1667158556
Fortuna,40.5982,-124.1573,58.08,91,100,8.05,US,1667158587
Mosquera,4.7059,-74.2302,66.29,63,40,12.66,CO,1667158343
Ol'ga,43.7444,135.2892,34.2,78,8,3.24,RU,1667158588
Sittwe,20.15,92.9,77.54,87,2,8.57,MM,1667158589
Hasaki,35.7333,140.8333,49.21,57,0,11.68,JP,1667158590
La Asuncion,11.0333,-63.8628,76.44,85,100,8.7,VE,1667158590
Grand Gaube,-20.0064,57.6608,73.8,69,100,5.99,MU,1667158591
Isangel,-19.55,169.2667,69.91,94,43,1.14,VU,1667158592
Tiksi,71.6872,128.8694,3.63,93,70,6.22,RU,1667158592
Bagarji,27.756,68.7524,75.2,73,0,0.0,PK,1667158593
Devonport,-41.1667,146.35,57.02,94,100,20.29,AU,1667158593
Klaksvík,62.2266,-6.589,50.92,90,91,29.08,FO,1667158594
Mpwapwa,-6.35,36.4833,71.85,48,100,5.28,TZ,1667158594
Dayong,25.0209,118.2898,70.36,61,100,6.78,CN,1667158595
Isiro,2.7739,27.616,66.72,99,100,2.01,CD,1667158595
Faanui,-16.4833,-151.75,80.24,73,48,14.03,PF,1667158596
Katsuura,35.1333,140.3,57.61,66,1,11.18,JP,1667158596
Krasnosel'kup,65.7,82.4667,27.97,92,100,16.58,RU,1667158597
Richards Bay,-28.783,32.0377,73.0,82,100,16.73,ZA,1667158598
Monrovia,6.3005,-10.7969,78.71,83,38,5.59,LR,1667158405
Roswell,34.0232,-84.3616,59.59,94,100,5.75,US,1667158429
Salinópolis,-0.6136,-47.3561,82.36,75,52,16.75,BR,1667158599
Kaupanger,61.1845,7.2404,46.89,93,40,1.14,NO,1667158599
Dofteana,46.3167,26.5167,55.42,75,87,3.24,RO,1667158600
Hambantota,6.1241,81.1185,79.38,82,98,7.45,LK,1667158600
Tūkrah,32.5341,20.5791,67.73,62,0,10.69,LY,1667158601
Belle Fourche,44.6714,-103.8522,67.08,24,0,2.66,US,1667158601
Itaberaí,-16.0203,-49.8103,86.16,41,46,7.49,BR,1667158602
Gazli,40.1333,63.45,52.56,58,8,2.42,UZ,1667158602
Bowen,-20.0167,148.2333,79.0,74,3,5.84,AU,1667158603
Shaunavon,49.6501,-108.4181,49.78,40,4,19.08,CA,1667158603
Russell,32.3502,-85.1999,70.88,83,100,10.36,US,1667158604
Bud,39.447,-86.1758,59.92,95,100,8.3,US,1667158605
Amudat,1.95,34.95,70.66,65,15,4.5,UG,1667158605
Santo Antônio de Pádua,-21.5394,-42.1803,87.44,54,86,7.56,BR,1667158606
Kemisē,10.7167,39.8667,62.89,34,17,2.59,ET,1667158606
Mitú,1.1983,-70.1733,88.07,54,92,4.38,CO,1667158607
Atar,20.5169,-13.0499,83.46,12,100,8.28,MR,1667158608
Bell Ville,-32.6259,-62.6887,64.67,27,58,20.58,AR,1667158608
Östersund,63.1792,14.6357,36.61,100,0,7.0,SE,1667158379
Gönc,48.4667,21.2833,52.47,85,30,1.39,HU,1667158609
Sovetskiy,61.3614,63.5842,29.82,55,100,12.15,RU,1667158609
Marabá,-5.3686,-49.1178,95.18,49,20,4.61,BR,1667158610
Kismayo,-0.3582,42.5454,78.46,85,21,9.57,SO,1667158611
Cockburn Town,21.4612,-71.1419,82.27,76,2,16.24,TC,1667158611
Hamilton,39.1834,-84.5333,64.49,89,100,9.22,US,1667158532
Pundaguitan,6.3711,126.1689,81.82,79,92,3.94,PH,1667158612
Tairua,-37.0167,175.85,64.24,95,100,4.47,NZ,1667158613
Northam,51.0333,-4.2167,56.25,94,58,15.68,GB,1667158614
Carbonia,39.1672,8.5222,66.0,83,94,5.08,IT,1667158614
Kalmunai,7.4167,81.8167,77.63,86,100,8.3,LK,1667158615
Sinjār,36.3209,41.8754,67.23,23,86,0.85,IQ,1667158616
Empório,40.4833,21.55,54.3,59,0,2.64,GR,1667158616
Shuyskoye,59.3736,41.0305,31.46,95,100,9.1,RU,1667158617
Kharp,66.8014,65.8081,28.29,98,98,8.34,RU,1667158617
Cauquenes,-35.9671,-72.3225,63.32,26,0,22.97,CL,1667158618
Aksu,41.1231,80.2644,49.17,37,100,3.83,CN,1667158618
Portland,45.5234,-122.6762,57.78,86,100,6.91,US,1667158410
Bichura,50.5881,107.6022,17.85,90,48,3.76,RU,1667158619
Vila Velha,-20.3297,-40.2925,80.55,86,40,19.57,BR,1667158619
Port Macquarie,-31.4333,152.9167,57.88,77,62,12.26,AU,1667158620
San Carlos del Zulia,9.0,-71.9135,87.17,54,100,1.83,VE,1667158620
Botwood,49.1499,-55.3482,54.9,53,1,11.05,CA,1667158621
Pathanāmthitta,9.2667,76.7833,77.74,98,98,0.34,IN,1667158622
Karasuk,53.7377,78.0403,28.13,67,76,8.3,RU,1667158622
Constitución,-35.3333,-72.4167,59.34,46,0,25.72,CL,1667158623
Caruray,10.3094,119.0128,79.38,89,100,16.22,PH,1667158624
Gaogou,34.0175,119.1886,59.56,85,88,4.29,CN,1667158624
Tigil',57.8,158.6667,18.18,90,66,5.93,RU,1667158625
Debre Birhan,9.6833,39.5333,45.05,43,15,5.55,ET,1667158626
Hualmay,-11.0964,-77.6139,67.53,70,19,11.34,PE,1667158626
Burnie,-41.0667,145.9167,56.95,96,100,24.36,AU,1667158490
Dunda,-8.1167,34.25,73.76,46,99,4.5,TZ,1667158628
Bima,-8.4667,118.7167,75.63,89,100,3.6,ID,1667158630
Narsaq,60.9167,-46.05,26.82,74,88,6.26,GL,1667158630
Tuatapere,-46.1333,167.6833,54.73,64,11,3.38,NZ,1667158631
Itarema,-2.9248,-39.9167,82.11,61,5,17.78,BR,1667158631
Tías,28.9611,-13.645,74.88,73,20,4.61,ES,1667158632
Qasigiannguit,68.8193,-51.1922,23.25,76,20,6.04,GL,1667158633
Taoudenni,22.6783,-3.9836,85.15,11,100,9.15,ML,1667158634
Flinders,-34.5833,150.8552,65.05,79,55,5.99,AU,1667158634
Saquena,-4.6667,-73.5167,88.68,54,95,2.04,PE,1667158635
Hofn,64.2539,-15.2082,45.86,97,100,11.63,IS,1667158635
Westport,41.1415,-73.3579,67.32,46,0,3.44,US,1667158636
Clarence Town,-32.5833,151.7833,63.99,76,96,2.37,AU,1667158637
Mackay,-21.15,149.2,72.68,77,21,5.12,AU,1667158638
Halifax,44.6453,-63.5724,62.6,57,0,8.05,CA,1667158635
Palana,59.1167,159.9667,21.88,87,100,6.15,RU,1667158639
Lalibela,12.0333,39.0333,56.64,34,87,7.81,ET,1667158639
Lorengau,-2.0226,147.2712,80.56,73,93,4.45,PG,1667158640
Gombong,-7.6072,109.5142,75.4,86,100,3.02,ID,1667158641
Vanimo,-2.6741,141.3028,77.41,90,54,4.47,PG,1667158641
Juneau,58.3019,-134.4197,41.22,97,100,27.63,US,1667158501
Gizo Government Station,-8.103,156.8419,81.84,77,1,4.21,SB,1667158642
Nkawkaw,6.5512,-0.7662,76.24,67,1,2.42,GH,1667158643
Kavaratti,10.5669,72.642,81.5,71,75,0.83,IN,1667158643
Graaff-Reinet,-32.2522,24.5308,61.92,54,100,16.06,ZA,1667158644
Puerto Suárez,-18.95,-57.8,97.36,38,75,11.5,BO,1667158645
Gorin,51.1983,136.6669,29.14,89,100,4.76,RU,1667158645
Ascension,30.2169,-90.9001,73.0,65,100,4.61,US,1667158646
Comodoro Rivadavia,-45.8667,-67.5,58.86,25,20,9.22,AR,1667158641
Tommot,58.9564,126.2925,23.68,98,100,1.25,RU,1667158647
Los Llanos de Aridane,28.6585,-17.9182,71.35,86,75,8.05,ES,1667158647
Kibala,9.1104,18.3463,78.75,69,0,3.44,TD,1667158648
Wiwilí,13.6268,-85.8254,80.58,79,78,4.54,NI,1667158648
Aizkraukle,56.6048,25.2553,39.47,76,23,4.97,LV,1667158649
Riyadh,24.6877,46.7219,78.94,14,35,7.81,SA,1667158626
Lakhisarai,25.1768,86.0932,69.55,61,0,5.84,IN,1667158650
Willmar,45.1219,-95.0433,64.58,33,0,6.91,US,1667158650
Piney Green,34.716,-77.3202,69.91,77,40,9.22,US,1667158651
Progreso,21.2833,-89.6667,89.71,60,2,11.86,MX,1667158462
Daru,-9.0763,143.2092,79.59,84,65,8.41,PG,1667158651
Salta,-24.7859,-65.4117,85.57,35,40,21.85,AR,1667158627
Kiama,-34.6833,150.8667,65.25,74,60,11.99,AU,1667158652
Atasū,48.6814,71.6433,37.26,93,91,13.33,KZ,1667158653
Coquimbo,-29.9533,-71.3436,62.33,72,100,8.05,CL,1667158654
Kapoeta,4.7717,33.5903,81.46,48,42,8.95,SS,1667158654
São Filipe,14.8961,-24.4956,79.99,72,41,11.03,CV,1667158654
Ichalkaranji,16.7,74.4667,66.24,63,1,6.42,IN,1667158655
Arman',59.7,150.1667,13.1,70,8,10.07,RU,1667158657
Belyy Yar,53.6039,91.3903,15.69,79,0,2.24,RU,1667158657
Lhokseumawe,5.1801,97.1507,78.31,83,100,4.27,ID,1667158658
Mareeba,-17.0,145.4333,74.12,91,69,1.7,AU,1667158659
Heiligenhafen,54.3667,10.9833,55.06,95,100,6.31,DE,1667158659
Camocim,-2.9022,-40.8411,85.42,52,7,21.43,BR,1667158660
Malakal,9.5334,31.6605,78.57,70,90,3.22,SS,1667158660
Mercedes,-34.6515,-59.4307,59.86,38,82,20.24,AR,1667158661
Huaibei,33.9744,116.7917,54.39,65,20,3.38,CN,1667158661
Astoria,46.1879,-123.8313,55.47,91,100,12.66,US,1667158587
Kenai,60.5544,-151.2583,27.14,90,0,3.44,US,1667158662
Emerald,-23.5333,148.1667,72.61,69,1,7.83,AU,1667158662
Umm Kaddadah,13.6017,26.6876,82.78,23,42,13.89,SD,1667158663
Saint-François,46.4154,3.9054,58.68,77,0,0.0,FR,1667158664
Garoowe,8.4054,48.4845,74.95,64,9,13.91,SO,1667158664
Topeka,39.0483,-95.678,67.42,53,0,8.05,US,1667158596
Djibo,14.1022,-1.6306,84.67,15,57,8.43,BF,1667158665
Rexburg,43.826,-111.7897,48.42,46,0,9.22,US,1667158646
Obzor,42.8167,27.8833,62.28,67,95,4.03,BG,1667158666
Yugorsk,61.3133,63.3319,29.89,56,100,12.17,RU,1667158666
Bor,56.3567,44.0669,33.73,95,100,12.88,RU,1667158667
Arrecife,28.963,-13.5477,76.98,73,20,4.61,ES,1667158416
Poronaysk,49.2167,143.1167,32.16,86,6,3.47,RU,1667158667
Hope Mills,34.9704,-78.9453,66.6,63,100,3.44,US,1667158668
Wuchang,44.9143,127.15,41.27,83,100,8.95,CN,1667158668
Jiangyan,32.5061,120.1428,60.98,90,12,6.15,CN,1667158669
East Highland Park,37.581,-77.4069,66.65,59,75,4.61,US,1667158669
Gweta,-20.1833,25.2333,81.93,34,99,8.75,BW,1667158670
Labuhan,-6.8844,112.2051,77.11,75,68,10.67,ID,1667158670
Saryg-Sep,51.5,95.6,8.56,94,66,4.29,RU,1667158671
Kamenka,51.3223,42.7678,46.42,81,100,15.97,RU,1667158672
Rājnagar,24.8833,79.9167,67.75,52,0,1.07,IN,1667158672
Erfurt,50.9833,11.0333,65.39,64,0,8.05,DE,1667158673
Poum,-20.2333,164.0167,77.34,73,0,9.28,NC,1667158673
Acapulco de Juárez,16.8634,-99.8901,84.02,74,0,10.36,MX,1667158674
Balakhninskiy,58.0106,114.2769,20.39,98,100,1.72,RU,1667158674
Pangoa,-12.1167,-73.0,77.38,91,26,3.65,PE,1667158675
Iracoubo,5.4802,-53.2011,81.63,81,100,6.38,GF,1667158675
Turukhansk,65.8167,87.9833,24.08,96,100,14.54,RU,1667158676
Mossamedes,-15.1961,12.1522,71.04,78,18,2.84,AO,1667158676
Bubaque,11.2833,-15.8333,82.38,79,0,8.25,GW,1667158677
Koungou,-12.7336,45.2042,80.31,74,100,8.05,YT,1667158677
Touros,-5.1989,-35.4608,79.57,67,19,13.15,BR,1667158678
Saint Anthony,45.0205,-93.218,65.86,49,0,5.75,US,1667158678
Mumford,5.2618,-0.759,79.03,84,0,7.87,GH,1667158679
Fairbanks,64.8378,-147.7164,9.23,83,100,4.61,US,1667158500
Gushi,34.6425,109.5843,57.49,76,88,4.5,CN,1667158680
Beringovskiy,63.05,179.3167,15.06,60,4,5.5,RU,1667158681
Mnogovershinnyy,53.9353,139.9242,25.47,82,100,3.76,RU,1667158681
White Rock,49.0164,-122.8026,53.01,94,100,17.0,CA,1667158624
Biltine,14.5333,20.9167,84.81,21,99,9.95,TD,1667158682
Mariel,22.9875,-82.7536,86.14,74,14,12.26,CU,1667158683
Nemuro,43.3236,145.575,51.19,76,99,19.15,JP,1667158684
Basco,20.4487,121.9702,81.63,84,100,31.05,PH,1667158684
Margate,51.3813,1.3862,60.91,88,49,3.0,GB,1667158685
Harper,4.375,-7.7169,78.35,86,59,6.8,LR,1667158685
Farnes,61.3167,7.8,41.88,79,100,5.48,NO,1667158686
Banda Aceh,5.5577,95.3222,78.91,79,72,7.81,ID,1667158687
Honiara,-9.4333,159.95,78.58,85,5,2.66,SB,1667158687
Finnsnes,69.2296,17.9811,39.81,93,100,5.61,NO,1667158688
Puerto Padre,21.195,-76.6028,85.77,63,29,11.9,CU,1667158689
San Miguel de Cauri,-10.1,-76.5833,62.67,37,53,10.83,PE,1667158689
Vung Tau,10.346,107.0843,78.13,84,100,5.97,VN,1667158690
Ulkan,57.243,107.3223,22.26,78,81,5.75,RU,1667158690
Baghdad,33.3406,44.4009,78.71,21,75,6.91,IQ,1667158691
Malaryta,51.7905,24.074,48.42,77,4,6.6,BY,1667158692
Pāsighāt,28.0667,95.3333,63.34,62,0,3.76,IN,1667158692
Mackenzie,55.2999,-123.1698,44.82,53,20,13.8,CA,1667158693
São João da Barra,-21.6403,-41.0511,80.69,88,96,24.14,BR,1667158695
Tual,-5.6667,132.75,84.69,73,100,6.08,ID,1667158696
Channel-Port aux Basques,47.5702,-59.1367,49.53,79,13,14.9,CA,1667158696
Kashgar,39.4547,75.9797,49.21,40,100,8.95,CN,1667158697
Dwārka,22.2394,68.9678,80.8,69,0,13.35,IN,1667158697
Korla,41.7597,86.1469,45.81,40,100,2.28,CN,1667158698
Voh,-20.9667,164.7,75.61,75,0,2.48,NC,1667158699
Culpeper,38.5004,-77.9664,65.79,55,0,3.44,US,1667158699
Dubovyy Umët,52.9763,50.2857,44.53,98,100,13.06,RU,1667158700
Kupang,-10.1667,123.5833,79.23,81,100,6.82,ID,1667158701
Bontang,0.1333,117.5,77.36,91,100,7.45,ID,1667158701
Bonthe,7.5264,-12.505,79.72,83,9,6.46,SL,1667158702
Belfast,54.5833,-5.9333,53.42,83,31,12.66,GB,1667158556
Coyhaique,-45.5752,-72.0662,53.55,37,20,11.5,CL,1667158673
Dodola,6.9833,39.1833,52.11,75,53,3.33,ET,1667158703
Yook,13.2261,121.964,80.29,90,100,22.64,PH,1667158704
Nuuk,64.1835,-51.7216,32.61,86,75,3.44,GL,1667158705
Mishan,45.55,131.8833,32.05,79,100,5.01,CN,1667158706
Lumphat,13.4878,106.9816,67.62,95,80,2.62,KH,1667158706
Suntar,62.1444,117.6319,18.7,98,100,1.72,RU,1667158707
Nouakchott,18.0858,-15.9785,87.73,24,51,10.74,MR,1667158707
Juba,4.8517,31.5825,75.61,71,84,8.43,SS,1667158708
Amapá,1.0,-52.0,89.64,47,100,3.94,BR,1667158708
Victor Harbor,-35.5667,138.6167,52.68,83,14,12.28,AU,1667158709
Buraidah,26.326,43.975,75.65,13,47,6.4,SA,1667158631
Yibin,28.7667,104.6238,63.43,84,100,0.89,CN,1667158710
Sørland,67.667,12.6934,44.46,70,100,15.88,NO,1667158710
Okha,53.5739,142.9478,31.24,73,57,7.65,RU,1667158711
Ixtapa,20.7,-105.2,85.23,61,0,6.91,MX,1667158711
Pichayevo,53.2363,42.2032,40.6,69,100,13.58,RU,1667158712
Biryusinsk,55.9634,97.8235,21.33,73,5,1.03,RU,1667158712
Kuril'sk,45.2333,147.8833,44.35,77,8,12.59,RU,1667158713
Muhos,64.808,25.9931,31.78,76,43,3.38,FI,1667158713
Tongliao,43.6125,122.2653,45.39,87,49,11.18,CN,1667158714
Bambanglipuro,-7.95,110.2833,76.05,80,99,2.86,ID,1667158715
Brest,52.1,23.7,48.74,74,5,6.89,BY,1667158712
Nsanje,-16.92,35.262,80.28,56,2,4.56,MW,1667158716
Brigantine,39.4101,-74.3646,63.19,72,0,8.05,US,1667158716
Vidalia,32.2177,-82.4135,69.75,78,100,8.05,US,1667158716
Inhambane,-23.865,35.3833,75.92,84,78,11.95,MZ,1667158717
Xique-Xique,-10.8218,-42.7263,88.48,46,92,5.21,BR,1667158718
Yenagoa,4.9247,6.2642,76.59,92,59,4.43,NG,1667158718
Dingle,10.9995,122.6711,75.96,92,100,9.4,PH,1667158719
Alofi,-19.0595,-169.9187,78.69,83,36,10.36,NU,1667158720
Nipawin,53.3668,-104.0009,48.24,49,4,14.97,CA,1667158721
Havøysund,70.9963,24.6622,39.43,73,76,11.1,NO,1667158721
Mata,40.683,-7.4592,51.93,76,100,2.84,PT,1667158722
Belaya Gora,68.5333,146.4167,-11.87,100,96,2.91,RU,1667158722
Humboldt,40.6665,-123.9178,49.28,44,44,5.99,US,1667158723
Kumul,42.8,93.45,41.88,25,20,0.72,CN,1667158723
Dezful,32.3811,48.4058,81.66,21,100,4.94,IR,1667158724
Sept-Îles,50.2001,-66.3821,55.4,63,75,11.5,CA,1667158724
Naze,28.3667,129.4833,70.72,78,100,21.12,JP,1667158725
Mana,5.6592,-53.7767,80.24,86,100,5.61,GF,1667158725
Rafaela,-31.2503,-61.4867,59.99,38,100,15.01,AR,1667158726
Camden,39.7835,-74.9663,66.7,53,12,1.99,US,1667158726
Manaia,-39.55,174.1333,58.08,83,6,6.73,NZ,1667158727
Christchurch,-43.5333,172.6333,61.0,66,25,2.3,NZ,1667158505
Port Hueneme,34.1478,-119.1951,90.07,42,0,5.75,US,1667158727
Alcúdia,39.8532,3.1214,71.55,79,100,4.94,ES,1667158728
Spearfish,44.4908,-103.8594,65.86,22,0,4.0,US,1667158729
Khovd,48.0056,91.6419,22.96,44,96,1.54,MN,1667158729
Jegălia,44.3,27.6333,64.06,52,99,3.76,RO,1667158730
Kalur Kot,32.1564,71.2594,75.04,22,0,5.14,PK,1667158730
Tessalit,20.1986,1.0114,77.95,17,100,11.36,ML,1667158730
Kovylkino,54.0388,43.9139,38.77,70,100,16.6,RU,1667158731
Sananduva,-27.9497,-51.8067,66.76,95,100,12.01,BR,1667158731
Beloha,-25.1667,45.05,74.05,68,3,11.34,MG,1667158732
Seoul,37.5683,126.9778,54.84,88,75,3.44,KR,1667158733
Puerto Morazán,12.8504,-87.1717,90.37,65,53,3.2,NI,1667158733
Pacifica,37.6138,-122.4869,74.71,85,20,4.61,US,1667158734
Bilma,18.6853,12.9164,74.68,23,0,9.82,NE,1667158735
Avera,33.194,-82.5271,60.39,70,98,7.92,US,1667158735
Tezu,27.9167,96.1667,64.8,58,0,4.25,IN,1667158736
Gaffney,35.0718,-81.6498,57.61,60,99,2.08,US,1667158736
Mogadishu,2.0371,45.3438,78.4,82,7,8.84,SO,1667158730
Arkhangelsk,64.5401,40.5433,37.11,100,100,0.0,RU,1667158737
Jambi City,-1.6,103.6167,73.78,99,100,3.06,ID,1667158738
Morondava,-20.2833,44.2833,79.12,78,9,3.91,MG,1667158738
Longkou,37.6508,120.3286,55.65,72,71,7.72,CN,1667158739
Elizabeth City,36.2946,-76.2511,70.02,71,75,9.22,US,1667158739
Nyanza,-2.3519,29.7509,59.81,87,100,2.01,RW,1667158740
Virginia Beach,36.8529,-75.978,67.05,75,75,9.22,US,1667158668
Bibiani,6.4635,-2.3194,76.96,74,58,1.07,GH,1667158741
Katherine,-14.4667,132.2667,82.72,57,98,5.75,AU,1667158508
Cacoal,-11.4386,-61.4472,84.25,71,65,4.03,BR,1667158742
Bajil,15.0584,43.2851,83.68,52,99,3.15,YE,1667158742
Robāţ Karīm,35.4846,51.0829,60.66,50,0,2.3,IR,1667158484
Carauari,-4.8828,-66.8958,87.85,61,94,3.31,BR,1667158743
Plettenberg Bay,-34.0527,23.3716,59.94,71,100,11.34,ZA,1667158744
Isabela,6.7085,121.9711,79.03,90,99,6.26,PH,1667158745
Songea,-10.6833,35.65,69.24,49,57,5.26,TZ,1667158746
Wenling,28.3669,121.36,61.88,83,77,10.2,CN,1667158747
Lüderitz,-26.6481,15.1594,62.96,67,66,14.94,NA,1667158748
